{
  "type": "FeatureCollection",
  "features": [
    {
      "type": "Feature",
      "properties": {
        "NAME": "Best Western Kelly Inn",
        "ADDRESS": "100 4th Avenue South",
        "PHONE": "320-253-0606",
        "URL": "https://www.bestwestern.com/en_US/book/hotel-rooms.24113.html?groupId=D68BE1E4"
      },
      "geometry": {
        "type": "Point",
        "coordinates": [
          -94.15543913841248,
          45.56134472992324
        ]
      }
    },
    {
      "type": "Feature",
      "properties": {
        "NAME": "Courtyard by Marriott (SOLD OUT)",
        "ADDRESS": "404 West Germain Street"
      },
      "geometry": {
        "type": "Point",
        "coordinates": [
          -94.15723085403442,
          45.56105177117617
        ]
      }
    },
    {
      "type": "Feature",
      "properties": {
        "NAME": "GrandStay Residential Suites",
        "ADDRESS": "213 Sixth Avenue South",
        "PHONE": "320-251-5400",
        "URL": "https://www.bestwestern.com/en_US/book/hotel-rooms.24113.html?groupId=D68BE1E4"
      },
      "geometry": {
        "type": "Point",
        "coordinates": [
          -94.15757417678833,
          45.5581220996896
        ]
      }
    },
    {
      "type": "Feature",
      "properties": {
        "NAME": "Hampton Inn & Suites",
        "ADDRESS": "145 37th Avenue North",
        "PHONE": "320-252-4448",
        "URL": "https://hamptoninn3.hilton.com/en/hotels/minnesota/hampton-inn-and-suites-st-cloud-mn-STCLDHX/index.html"
      },
      "geometry": {
        "type": "Point",
        "coordinates": [
          -94.20431971549988,
          45.55649944667429
        ]
      }
    },
    {
      "type": "Feature",
      "properties": {
        "NAME": "Homewood Residential Suites",
        "ADDRESS": "115 37th Avenue North",
        "PHONE": "320-252-5900",
        "URL": "https://homewoodsuites3.hilton.com/en/hotels/minnesota/homewood-suites-by-hilton-st-cloud-STCMNHW/index.html"
      },
      "geometry": {
        "type": "Point",
        "coordinates": [
          -94.204341173172,
          45.555740690066415
        ]
      }
    },
    {
      "type": "Feature",
      "properties": {
        "NAME": "Hilton Garden Inn St. Cloud",
        "ADDRESS": "550 Division Street (Waite Park, MN)",
        "PHONE": "320-640-7990",
        "URL": "https://hiltongardeninn3.hilton.com/en/hotels/minnesota/hilton-garden-inn-st-cloud-STCOUGI/index.html"
      },
      "geometry": {
        "type": "Point",
        "coordinates": [
          -94.22359406948088,
          45.55321643593488
        ]
      }
    }
  ]
}
